timestamp,x,y,z,yaw
651830910,0.20133315,0.005978755,-0.000181195,1.6474196
651927730,0.20114039,0.005996836,-0.000108616,1.6474174
652336513,0.20072114,0.006049069,0.000306352,1.6475776
652440518,0.20065312,0.005920688,0.00046535,1.6474926
652536513,0.20057124,0.00542906,0.000544553,1.6477101
652640517,0.20045452,0.00487662,0.000570411,1.6473027
652744509,0.20023401,0.004279852,0.000453133,1.6475282
652840519,0.20007946,0.003864403,0.000269779,1.6475587
652944508,0.19981828,0.003996964,-7.69E-05,1.6475255
653046120,0.19973211,0.004449159,-0.00045389,1.647401
653150131,0.19971932,0.005161364,-0.000847306,1.6477123
653254120,0.1999255,0.006018779,-0.001246624,1.6476207
653358115,0.20009275,0.006817437,-0.001577742,1.6476326
653454140,0.2003455,0.007319105,-0.001773666,1.6476325
653558114,0.2007864,0.007500828,-0.001794322,1.6476959
653662137,0.20133491,0.007176594,-0.001738874,1.6475523
653759037,0.20179144,0.006619252,-0.001803031,1.6475313
653863016,0.20219706,0.005977884,-0.00204171,1.6475685
653966911,0.20230627,0.005524423,-0.002305328,1.6476898
654062916,0.20230846,0.005419156,-0.002566239,1.6474942
654166906,0.20234498,0.005745909,-0.00265411,1.6475562
654270918,0.20256107,0.006202008,-0.002522125,1.6476462
654366914,0.202865,0.006491877,-0.002410736,1.6474792
654470910,0.20311858,0.006627464,-0.00237344,1.6476237
654574926,0.20323789,0.006576147,-0.002352953,1.6476744
654672512,0.20323886,0.006241927,-0.002285142,1.6476926
654776512,0.20299967,0.006031299,-0.002132659,1.6476249
654880509,0.2025124,0.006096661,-0.001910103,1.6476239
654976518,0.20206487,0.006426469,-0.001597398,1.6475868
655080510,0.20154047,0.007050328,-0.001238581,1.6476076
655184510,0.20107265,0.007747934,-0.000800227,1.6476314
655280512,0.2007423,0.008173194,-0.000333852,1.6476432
655381425,0.200633,0.008277054,9.57E-05,1.6475853
655485418,0.20050356,0.008120242,0.000591033,1.6476662
655589319,0.20024806,0.007612126,0.001192325,1.647273
655693329,0.19980031,0.006751053,0.002133366,1.6471124
655789312,0.19931568,0.00590196,0.003020651,1.6469796
655893353,0.19904616,0.004905361,0.003528964,1.6462501
655997332,0.1997698,0.003039442,-0.002385245,1.6476839
656093332,0.20081502,0.000748115,-0.020174861,1.6493615
656197312,0.2014374,-0.001974187,-0.049746007,1.6511511
656295023,0.20094067,-0.004255711,-0.07926502,1.6513401
656398918,0.19856393,-0.006879935,-0.10886537,1.6515088
656502913,0.1950178,-0.009876374,-0.13746546,1.6493163
656606911,0.19044314,-0.013835278,-0.16627048,1.6452422
656702916,0.18631752,-0.017756922,-0.19200888,1.6416564
656806917,0.18229802,-0.021623181,-0.21791431,1.6406096
656910938,0.17845389,-0.02510086,-0.24335143,1.6413615
657007825,0.17470552,-0.028319137,-0.26603803,1.6442477
657111835,0.17133227,-0.031386223,-0.29087576,1.6455754
657215728,0.168507,-0.03384163,-0.318234,1.6449975
657311726,0.16605383,-0.035780173,-0.35021847,1.6438661
657415719,0.16393118,-0.037398133,-0.38818374,1.6443777
657519718,0.16302156,-0.038335145,-0.4285189,1.646469
657615718,0.16276963,-0.03904467,-0.46683225,1.6481181
657719710,0.16290283,-0.03990311,-0.50863886,1.6510206
657823733,0.16333964,-0.041286673,-0.5503214,1.6533753
657925314,0.16426696,-0.04317107,-0.5915348,1.654982
658021360,0.16588333,-0.04524248,-0.62976396,1.6562233
658125319,0.16795689,-0.047615014,-0.6705827,1.6573299
658229314,0.16977645,-0.04992786,-0.71125174,1.6585433
658325319,0.17148486,-0.051650245,-0.7488368,1.6594856
658429314,0.17344902,-0.052891176,-0.79011756,1.6602908
658533320,0.17541839,-0.05358031,-0.8309565,1.661106
658630233,0.17678834,-0.053899154,-0.86885506,1.6620045
658734234,0.17751475,-0.05399571,-0.90915996,1.6622084
658838132,0.17765662,-0.054059763,-0.9493985,1.6624877
658934139,0.17724928,-0.054333024,-0.9864724,1.6622506
659038160,0.17607109,-0.05457433,-1.027147,1.6623544
659142136,0.17446105,-0.054767273,-1.0677863,1.6621698
659246131,0.17263354,-0.054866675,-1.1079354,1.6625384
659342126,0.17074125,-0.05474079,-1.1454346,1.6624054
659446140,0.16885406,-0.054214112,-1.186027,1.6624074
659543026,0.16713549,-0.0534272,-1.2239804,1.6622931
659647026,0.16552953,-0.05253191,-1.2554451,1.6617718
659751023,0.1644686,-0.051299307,-1.266814,1.6617283
659854934,0.16404043,-0.049297336,-1.2643108,1.6622578
659950929,0.16395277,-0.046652343,-1.2581382,1.6627116
660054928,0.16405846,-0.043058224,-1.2507403,1.6637483
660158911,0.16419645,-0.039262954,-1.244875,1.6647321
660254917,0.1643755,-0.03603418,-1.2412509,1.6655513
660358913,0.16471168,-0.03296513,-1.2395144,1.666089
660462909,0.16497175,-0.030739784,-1.2393389,1.6665144
660560511,0.16501151,-0.029576793,-1.2400649,1.6665194
660664526,0.16482341,-0.029277207,-1.241976,1.6662705
660768513,0.16463287,-0.029617717,-1.2447015,1.6656762
660864513,0.16445175,-0.030367004,-1.2466767,1.6655108
660968520,0.1642571,-0.031291336,-1.246203,1.6651452
661072556,0.164096,-0.0321105,-1.2454268,1.6649551
661168516,0.16421382,-0.032310672,-1.2445308,1.6647577
661269450,0.16420315,-0.031880796,-1.2438283,1.6646124
661373431,0.16431025,-0.030524373,-1.242869,1.6646079
661477332,0.16470891,-0.028640358,-1.2412013,1.6649759
661573318,0.16538736,-0.026662573,-1.2394414,1.6648343
661677332,0.16619849,-0.024374016,-1.2338941,1.6648828
661781318,0.16709457,-0.022259077,-1.2246281,1.6649041
661877319,0.16802953,-0.020485954,-1.2166378,1.6654843
661981314,0.16920342,-0.018829763,-1.2079216,1.6657467
662085318,0.17016603,-0.01749388,-1.1990485,1.6662207
662182920,0.17112614,-0.01639964,-1.1906841,1.6664588
662286913,0.17196374,-0.015560036,-1.1816853,1.6665189
662390909,0.17274225,-0.015006037,-1.1735108,1.6664053
662486915,0.17334296,-0.01464901,-1.1657766,1.6665735
662590911,0.17341562,-0.014568674,-1.1574531,1.6663604
662694910,0.17303383,-0.015022305,-1.1493993,1.6665537
662790931,0.17235622,-0.015704919,-1.1422704,1.666665
662895826,0.17084302,-0.016336989,-1.1348855,1.6668369
662999850,0.16909161,-0.016727187,-1.1274954,1.6669265
663095713,0.16750301,-0.016994838,-1.1209253,1.6669157
663199727,0.1659382,-0.017298149,-1.1137271,1.6668419
663303729,0.16466415,-0.017485842,-1.1067642,1.6667486
663407726,0.16390009,-0.017900301,-1.0993745,1.6669039
663503748,0.16369677,-0.018140309,-1.0925924,1.6671097
663607711,0.16420998,-0.018019076,-1.085631,1.6670736
663711766,0.1653426,-0.017451886,-1.0788106,1.666861
663812624,0.1665122,-0.016751684,-1.0719681,1.6665349
663908627,0.16769272,-0.015935205,-1.0656432,1.6666752
664012530,0.16893552,-0.015021551,-1.0586424,1.6665217
664116511,0.17026228,-0.014250519,-1.0517333,1.6666056
664212519,0.17151237,-0.013504473,-1.0452895,1.6667802
664316512,0.17282934,-0.012879149,-1.03842,1.6670872
664420514,0.17414065,-0.012280965,-1.0323046,1.6673524
664516514,0.17531563,-0.011617435,-1.0289071,1.6681373
664620513,0.17657104,-0.010813599,-1.0285944,1.6688086
664725432,0.1781227,-0.010177625,-1.0286375,1.669151
664821426,0.17983218,-0.00991269,-1.0286742,1.6690031
664925422,0.18162553,-0.009925355,-1.0290719,1.668702
665029316,0.18335167,-0.010423425,-1.0295917,1.6688441
665125311,0.18456668,-0.011114541,-1.0297023,1.6690202
665229309,0.18538803,-0.011911899,-1.0291808,1.6692051
665333340,0.18591395,-0.012439473,-1.0285823,1.6693875
665437328,0.18605094,-0.012619188,-1.027848,1.6690667
665533311,0.18595852,-0.012456997,-1.0270165,1.6685332
665638926,0.1856933,-0.011925825,-1.0256517,1.6685157
665734920,0.18515491,-0.011306585,-1.0244472,1.6684272
665838916,0.1844639,-0.010478638,-1.0229899,1.6686597
665942916,0.18340173,-0.009314709,-1.0213494,1.668413
666038928,0.18244338,-0.008105162,-1.0200138,1.6685805
666142912,0.18159859,-0.006755947,-1.0185254,1.669015
666246929,0.18103024,-0.005438865,-1.0170516,1.6695588
666343823,0.18095228,-0.004322312,-1.0158927,1.6696064
666447837,0.1811771,-0.003227263,-1.0149239,1.6695288
666551855,0.18202257,-0.002294896,-1.0143337,1.6698724
666655720,0.18341127,-0.001601756,-1.0141006,1.6706041
666751719,0.18501079,-0.001093607,-1.0140887,1.6714288
666855727,0.18712324,-0.000470018,-1.013789,1.6729226
666959716,0.18939011,0.000296192,-1.013525,1.6744579
667055720,0.19148375,0.000897578,-1.0135744,1.675134
667159726,0.19352001,0.001424401,-1.0138056,1.6749779
667263714,0.19528928,0.001834095,-1.0141909,1.6737744
667365315,0.196639,0.002114509,-1.0148425,1.6722391
667461326,0.19748607,0.002443599,-1.0158137,1.6701913
667565310,0.19806153,0.002724285,-1.0167477,1.6678047
667669311,0.19841622,0.002896281,-1.0175565,1.6656029
667765350,0.19851083,0.002783616,-1.0182878,1.6638147
667869317,0.19865395,0.002338687,-1.0186456,1.6616573
667974227,0.19888295,0.001487452,-1.0191299,1.6595674
668070933,0.19906905,0.00061253,-1.0196265,1.6581576
668174919,0.19919302,-0.000707623,-1.0195119,1.6575682
668278913,0.19935225,-0.002316177,-1.0190908,1.6572678
668374913,0.19990197,-0.003815704,-1.0189698,1.6574705
668478916,0.20067503,-0.005161761,-1.0188656,1.6578039
668582914,0.20165403,-0.006247724,-1.0181612,1.6581955
668683821,0.20282425,-0.007032014,-1.017676,1.6585598
668779836,0.20402497,-0.007558528,-1.0175514,1.6589341
668883825,0.20543219,-0.007987003,-1.0177084,1.6592052
668987715,0.20695177,-0.008519924,-1.017249,1.658839
669091744,0.20852807,-0.008938298,-1.017082,1.6578726
669187719,0.20995158,-0.009177507,-1.017299,1.6565328
669291728,0.21139596,-0.009315616,-1.0175289,1.6558281
669395711,0.2124197,-0.009114438,-1.0179152,1.655422
669491748,0.21292484,-0.008679285,-1.0180753,1.6551039
669595720,0.21340089,-0.007591546,-1.0182219,1.6549158
669700625,0.21359354,-0.004445968,-1.01863,1.6548481
669804625,0.21368696,0.002489695,-1.0188164,1.6545465
669900529,0.21374214,0.01231097,-1.0188118,1.6545897
670004517,0.21383607,0.025223069,-1.0191159,1.6541512
670108513,0.21398519,0.038674112,-1.0200061,1.6535279
670204516,0.21426296,0.050157744,-1.0207381,1.6537442
670308509,0.21506855,0.060129922,-1.0212009,1.6550195
670412514,0.21667062,0.0667592,-1.0210325,1.6575991
670508515,0.2185265,0.06993996,-1.0211303,1.6596931
670613417,0.22096305,0.070655435,-1.0208311,1.6619593
670717451,0.22380005,0.06937153,-1.0201229,1.6642023
670813319,0.22690907,0.06711776,-1.0195202,1.6665951
670917311,0.23065172,0.06457247,-1.0185236,1.6702985
671021325,0.23451088,0.06303372,-1.0172716,1.6747445
671117328,0.23826386,0.063236564,-1.0163538,1.6785072
671221322,0.24179101,0.06502029,-1.0149553,1.681001
671325314,0.24474971,0.06738631,-1.0143454,1.6834563
671429314,0.24680386,0.06856522,-1.0143018,1.6857291
671527038,0.24812149,0.06714696,-1.0145026,1.6884077
671630915,0.24927965,0.06265034,-1.0148709,1.6910905
671726911,0.24959159,0.05558896,-1.0149541,1.6924635
671830912,0.24943821,0.045150444,-1.0155276,1.6936014
671934915,0.24839403,0.032980837,-1.0166855,1.6929233
672030914,0.24667561,0.021277236,-1.0175058,1.6921775
672134914,0.24399076,0.009089616,-1.01792,1.6903772
672239848,0.24049567,-0.001872882,-1.018247,1.6893052
672335829,0.2367483,-0.009650378,-1.0184299,1.6880344
672439733,0.23207098,-0.014256983,-1.0179571,1.6860688
672543714,0.22684513,-0.015352284,-1.0182382,1.6836126
672647741,0.22190697,-0.014635371,-1.0197035,1.6814746
672743713,0.21796255,-0.013817957,-1.0210255,1.6778582
672847726,0.21442108,-0.013953988,-1.0227056,1.6743946
672951742,0.21211421,-0.015395713,-1.0245436,1.6714678
673047719,0.21087293,-0.018032635,-1.0265411,1.6692994
673152659,0.21020208,-0.022334713,-1.0283738,1.666912
673256644,0.21014911,-0.027545014,-1.0300534,1.6649584
673352622,0.21027891,-0.032520693,-1.031452,1.6631228
673456527,0.21055895,-0.037590664,-1.0329461,1.6609472
673560515,0.21109234,-0.04195477,-1.0339862,1.6596009
673656527,0.21176235,-0.04522039,-1.0348089,1.6599265
673760510,0.21231535,-0.048050724,-1.0353268,1.6621454
673864516,0.21234713,-0.05053758,-1.0351292,1.6644284
673960512,0.21198365,-0.05268134,-1.0343989,1.6677221
674065453,0.2113499,-0.054678775,-1.0331137,1.6712589
674169437,0.21029826,-0.056273323,-1.0317904,1.6729323
674265419,0.2093927,-0.055588648,-1.0302781,1.6749359
674369326,0.2082313,-0.051307768,-1.0286024,1.6763221
674473342,0.20720561,-0.043887638,-1.0279497,1.6766304
674569344,0.20639662,-0.036205806,-1.0277035,1.6748
674673310,0.20586061,-0.028755875,-1.0283726,1.6725348
674777361,0.20566651,-0.022721836,-1.0292265,1.6698277
674873320,0.20597236,-0.018432628,-1.029675,1.6663836
674977332,0.20668879,-0.015530601,-1.0306057,1.6620588
675082916,0.20770973,-0.014302217,-1.0316153,1.6578486
675178917,0.20907462,-0.013902552,-1.0320464,1.6562107
675282915,0.21085857,-0.013262889,-1.0320101,1.6560749
675386915,0.21249636,-0.011658954,-1.032317,1.6569872
675482917,0.21401931,-0.008853934,-1.0322093,1.6585077
675586914,0.21578853,-0.004547855,-1.0313368,1.6611513
675690917,0.21738839,-5.18E-05,-1.0305662,1.6641454
675787829,0.21870804,0.003013927,-1.0302607,1.6667554
675891836,0.22027484,0.003922319,-1.0303731,1.670514
675995717,0.2218856,0.001662171,-1.0303766,1.673749
676091719,0.22343014,-0.003069519,-1.0304288,1.6750065
676195718,0.22511534,-0.010034021,-1.0304613,1.6741987
676299718,0.22721711,-0.017574914,-1.0301714,1.6724365
676395727,0.22912489,-0.02436938,-1.0299963,1.6677485
676499713,0.23021029,-0.030075835,-1.0296046,1.6621746
676603710,0.23019157,-0.031595387,-1.0283322,1.655535
676704649,0.22860426,-0.026407003,-1.0258908,1.65053
676808618,0.22554128,-0.015622441,-1.0259501,1.6459017
676904531,0.22152422,-0.004432621,-1.0273448,1.6419629
677008511,0.21595748,0.005474743,-1.0289574,1.6379864
677112514,0.20955156,0.010912159,-1.031167,1.6336849
677208513,0.20284386,0.011356749,-1.0327797,1.6291845
677312512,0.19498175,0.006762912,-1.0347365,1.6227831
677416518,0.18654776,-0.002174644,-1.036041,1.6168591
677512514,0.17859083,-0.01271059,-1.0369382,1.6098344
677614131,0.17040558,-0.024909355,-1.0386708,1.6029657
677718170,0.1627211,-0.03629783,-1.0395982,1.5981914
677822128,0.15557902,-0.045250896,-1.0397778,1.5933523
677918157,0.14976832,-0.05037132,-1.0394825,1.5908552
678022122,0.14441176,-0.052842397,-1.0391208,1.5889642
678126130,0.13986765,-0.05296403,-1.038361,1.5877078
678230119,0.13632023,-0.051681403,-1.0376753,1.5867198
678327028,0.13381398,-0.050897878,-1.0384167,1.5878612
678431023,0.13200286,-0.050788704,-1.0386477,1.5894406
678527019,0.13096786,-0.051656593,-1.0388676,1.5913291
678630915,0.13027112,-0.053527642,-1.0386099,1.5927162
678734918,0.13015959,-0.0561194,-1.0385686,1.5960048
678838928,0.13104269,-0.058667842,-1.039146,1.5980737
678942912,0.1323974,-0.0612001,-1.0398932,1.5984809
679038929,0.13369122,-0.06307496,-1.0401683,1.5995272
679142913,0.13518918,-0.06402238,-1.0402215,1.6014987
679247837,0.13645768,-0.063361496,-1.0401781,1.6026944
679343844,0.13671051,-0.06166621,-1.0406084,1.6035416
679447720,0.1361145,-0.059768684,-1.0420408,1.6021149
679551727,0.1344556,-0.057497352,-1.043096,1.6008015
679647736,0.13219196,-0.053268425,-1.0428921,1.6002737
679751716,0.12898412,-0.046084855,-1.0420974,1.5999795
679855717,0.12574919,-0.037820093,-1.0417578,1.5995785
679951714,0.12323755,-0.03158233,-1.0422405,1.5997461
680055713,0.12120349,-0.0271259,-1.0416439,1.6000134
680160630,0.120289266,-0.025228657,-1.0401821,1.6012616
680256621,0.12048528,-0.02573278,-1.0393138,1.602534
680360631,0.1220186,-0.02776536,-1.0377495,1.604776
680464519,0.12445788,-0.030477973,-1.0351562,1.6054292
680560512,0.12757728,-0.033091154,-1.033072,1.6052947
680664512,0.1321798,-0.03563131,-1.0310664,1.6080333
680768519,0.13775975,-0.037817314,-1.0289333,1.611183
680872648,0.14373767,-0.038752243,-1.0264102,1.613384
680968514,0.14947087,-0.03830496,-1.0238492,1.6153592
681072514,0.15566197,-0.037019882,-1.0213182,1.6190032
681169434,0.16062273,-0.03574326,-1.0188264,1.6223577
681273427,0.16485274,-0.035682973,-1.0170912,1.623449
681377319,0.16841443,-0.036784045,-1.0154718,1.6248233
681481323,0.17090951,-0.038794346,-1.0144296,1.6236466
681577336,0.17252475,-0.04073141,-1.0132066,1.6210699
681681349,0.17369443,-0.04168638,-1.0112596,1.6183794
681785318,0.17372589,-0.041604962,-1.0097196,1.6133159
681881331,0.1721622,-0.040878028,-1.0086915,1.6055453
681985312,0.16973363,-0.039819617,-1.0082141,1.5991048
682086913,0.16744381,-0.039118554,-1.0078636,1.5967207
682190920,0.16556689,-0.03822089,-1.0058025,1.5976269
682286915,0.16424881,-0.03811573,-1.0039282,1.5993302
682390917,0.1632245,-0.0395824,-1.0024971,1.6042639
682494911,0.16286004,-0.04260926,-1.0011753,1.6106498
682590912,0.16342342,-0.047133997,-1.0002166,1.6166506
682694927,0.1650284,-0.053150363,-0.99956226,1.6232314
682799838,0.16801904,-0.05826412,-0.99796814,1.6322718
682895841,0.17134273,-0.06117627,-0.9961918,1.6385328
682999715,0.17581,-0.061370354,-0.9935771,1.647267
683103714,0.18069936,-0.060703255,-0.9920197,1.6576971
683199836,0.18522386,-0.059264395,-0.9907967,1.6649104
683303734,0.1900465,-0.05612123,-0.9887881,1.6735691
683407713,0.19376393,-0.05388362,-0.98876035,1.6776453
683511733,0.19628343,-0.05452206,-0.9910098,1.6749717
683607716,0.19779755,-0.05915019,-0.99477684,1.6728437
683708625,0.19783574,-0.06664754,-0.9982321,1.6676623
683812682,0.1961115,-0.0755642,-1.0019095,1.6594402
683916514,0.19270878,-0.083441176,-1.0049727,1.6506834
684012527,0.18801863,-0.0896044,-1.0081966,1.6425382
684116514,0.18200822,-0.09448848,-1.0106242,1.6315018
684220512,0.1764605,-0.096190915,-1.0114788,1.6282458
684316541,0.17157552,-0.094439074,-1.0101101,1.6229599
684420512,0.16788982,-0.089923486,-1.0079937,1.6212308
684524517,0.16610025,-0.084406674,-1.0054127,1.6226664
684625426,0.16606976,-0.07799948,-1.0015523,1.6307232
684729444,0.16745238,-0.07247436,-0.99739087,1.6386834
684825429,0.17001203,-0.068492875,-0.99403286,1.6432571
684929364,0.17388032,-0.06310786,-0.98853546,1.6496127
685033319,0.17870893,-0.056552388,-0.98222834,1.6576897
685129316,0.18318506,-0.052050605,-0.9781299,1.6612356
685233316,0.1880226,-0.04987429,-0.97512543,1.6616893
685337317,0.19263496,-0.04785533,-0.97057736,1.6600878
685433356,0.1969635,-0.044434432,-0.9650449,1.6633945
685538257,0.20136495,-0.042711444,-0.96133274,1.6666484
685642930,0.20546907,-0.044870026,-0.9595287,1.6695905
685738917,0.20930439,-0.048176922,-0.95819294,1.6721492
685842933,0.21277419,-0.055717677,-0.9599934,1.6730036
685946911,0.21544294,-0.06597204,-0.9631751,1.6725203
686042928,0.21659252,-0.07520509,-0.96581906,1.665589
686146931,0.21644978,-0.081172794,-0.9690502,1.6575866
686251824,0.21439423,-0.08185454,-0.9727387,1.6497394
686347824,0.21113889,-0.07829289,-0.9753572,1.6443366
686451839,0.20641775,-0.07003665,-0.9766972,1.6410152
686555711,0.20050426,-0.05880776,-0.9768479,1.6371125
686651729,0.19432202,-0.04638758,-0.97560817,1.634278
686755714,0.18740043,-0.034901407,-0.97494185,1.6329703
686859713,0.18076117,-0.0260904,-0.97352904,1.6347313
686955726,0.17539838,-0.020756058,-0.9712293,1.6380545
687059719,0.17093214,-0.019071853,-0.96900034,1.6418505
687163716,0.16750704,-0.021325707,-0.96724445,1.6411031
687261325,0.16556464,-0.025491657,-0.96601623,1.6422238
687365352,0.16451769,-0.033278592,-0.96617,1.6413504
687469309,0.16398533,-0.04079852,-0.9665842,1.6360279
687565319,0.16420382,-0.048590153,-0.96874887,1.6273979
687669319,0.16523433,-0.054861978,-0.97126186,1.6181254
687773331,0.16693005,-0.056343365,-0.9731191,1.6122911
687869348,0.16915122,-0.059602633,-0.97820777,1.6046314
687974920,0.17220765,-0.063293405,-0.9828967,1.5939732
688078913,0.17575778,-0.06433941,-0.984325,1.591969
688182915,0.17916682,-0.065216914,-0.9856523,1.5933137
688278916,0.18216866,-0.062847406,-0.98420274,1.5947815
688382918,0.18511932,-0.06227554,-0.98340815,1.5978309
688486914,0.18741219,-0.05994529,-0.98002255,1.6041435
688583829,0.18916063,-0.057794712,-0.97683704,1.612212
688687831,0.1900066,-0.050063632,-0.9706348,1.6149307
688791851,0.18937807,-0.044519175,-0.96696544,1.6179543
688887719,0.1884171,-0.04190582,-0.9640712,1.6192847
688991728,0.18671028,-0.03939924,-0.95876455,1.6206553
689095716,0.18471837,-0.036803894,-0.95195675,1.627612
689191728,0.18295522,-0.03264478,-0.94468206,1.6358835
689295728,0.18056764,-0.0270783,-0.9358887,1.6473092
689399715,0.17653878,-0.021137442,-0.9269984,1.6443964
689503718,0.17113727,-0.01806845,-0.9193622,1.6487043
689604618,0.16489412,-0.018223206,-0.9123373,1.6441284
689700621,0.1588494,-0.027571367,-0.90991914,1.6443695
689804519,0.15165378,-0.040076204,-0.90585864,1.6418847
689908517,0.1443787,-0.053811193,-0.9025452,1.6441089
690004516,0.13800763,-0.07305335,-0.90336627,1.6366493
690108513,0.13192506,-0.08974945,-0.90209574,1.6244322
690212517,0.12661271,-0.101870626,-0.89970577,1.6236709
690308515,0.123134874,-0.11451191,-0.9004064,1.6183012
690412526,0.12150361,-0.122205816,-0.89917654,1.6112092
690517439,0.121507354,-0.11906306,-0.8946035,1.6001858
690613458,0.123188786,-0.10877606,-0.88932693,1.6054873
690717313,0.12662134,-0.1044877,-0.8891366,1.608576
690821330,0.1328369,-0.10285263,-0.88795793,1.6145734
690917349,0.13958043,-0.10197807,-0.8859192,1.6148375
691021323,0.14861591,-0.10128035,-0.883677,1.6270832
691125319,0.15770636,-0.11341967,-0.887007,1.6352637
691221321,0.1675144,-0.12588096,-0.8878592,1.6435499
691325333,0.17801625,-0.14187567,-0.8879404,1.6586428
691430913,0.18884188,-0.15116043,-0.88466126,1.6633271
691526936,0.19806778,-0.15366554,-0.8811716,1.6735396
691630918,0.2062662,-0.1530733,-0.87991947,1.691027
691734910,0.21285556,-0.1583879,-0.88106525,1.6961318
691830908,0.21749595,-0.16427879,-0.8808025,1.6986738
691934916,0.22166328,-0.17316915,-0.87953717,1.6989124
692038943,0.22460496,-0.18469751,-0.87725234,1.6916903
692136517,0.22553866,-0.18347323,-0.87133455,1.7012926
692240519,0.22586419,-0.1760449,-0.86427736,1.6943998
692344520,0.22443919,-0.15193602,-0.85368675,1.7103031
692440526,0.22231793,-0.14072867,-0.8492665,1.6932752
692544510,0.21963459,-0.119504385,-0.8394787,1.6950169
692648518,0.21755645,-0.10098489,-0.8320043,1.7034868
692744513,0.21654381,-0.11415938,-0.83482206,1.6725813
692849436,0.21848534,-0.12730108,-0.8344136,1.6730264
692953425,0.22306642,-0.13451275,-0.8325994,1.6874243
693049469,0.22900169,-0.16094846,-0.8400599,1.6879377
693153311,0.23442703,-0.20770271,-0.8537704,1.6896486
693257318,0.2383619,-0.26340443,-0.8686916,1.6747026
693353317,0.24148083,-0.30993903,-0.87972885,1.6730053
693457319,0.24400173,-0.34584033,-0.88791054,1.6718814
693561325,0.24580711,-0.36474764,-0.8934542,1.6668717
693657314,0.24660721,-0.36608315,-0.8956048,1.6771476
693762229,0.24641362,-0.3520486,-0.89528537,1.6812426
693866916,0.24562997,-0.32384846,-0.89219105,1.7051572
693962918,0.2441993,-0.294346,-0.8892195,1.7090012
694066913,0.24229446,-0.25044286,-0.88038355,1.7201452
694170914,0.24038672,-0.21707627,-0.8748337,1.7259637
694266909,0.23776829,-0.18685843,-0.86785966,1.6970366
694370917,0.23161346,-0.1606654,-0.8631515,1.6692396
694471833,0.22267243,-0.14420526,-0.86024016,1.6129361
694575829,0.2158244,-0.12015958,-0.85359013,1.5910455
694679836,0.21099256,-0.09701006,-0.8486487,1.5518799
694775714,0.20814082,-0.07677458,-0.84587276,1.5117025
694879720,0.20782262,-0.0638348,-0.8469273,1.4975905
694983720,0.21083306,-0.062738344,-0.8514796,1.5241383
695079713,0.2153963,-0.06980529,-0.85673916,1.5449398
695183710,0.22212315,-0.0933788,-0.86578256,1.5764602
695287711,0.2296405,-0.13115053,-0.8769282,1.605593
695383716,0.2353435,-0.16712934,-0.886875,1.6120689
695484623,0.23949292,-0.20176402,-0.8974787,1.6145186
695588631,0.24235421,-0.24129087,-0.91172135,1.5969121
695692533,0.24811605,-0.27176684,-0.9215366,1.6140157
695796516,0.25399333,-0.2821954,-0.925775,1.6295414
695892536,0.25978774,-0.29303125,-0.9333413,1.6212534
695996519,0.2679844,-0.27941132,-0.93300277,1.6300942
696100510,0.2768485,-0.24040666,-0.9271923,1.6751205
696196526,0.28624696,-0.20479624,-0.92550164,1.683615
696300511,0.29847074,-0.16707253,-0.9237451,1.7096429
696405433,0.31358087,-0.13462234,-0.92189914,1.7493182
696501437,0.3271039,-0.11955058,-0.923772,1.7820755
696605348,0.34009013,-0.1188637,-0.92870134,1.7728393
696709315,0.34920648,-0.11771672,-0.93062264,1.7897447
696805314,0.35241076,-0.12168421,-0.93324465,1.7821971
696909308,0.35168865,-0.13830037,-0.9400135,1.7301426
697013311,0.34930068,-0.16081822,-0.9474469,1.7114867
697109346,0.34611124,-0.16769816,-0.94966596,1.7017492
697213311,0.3408674,-0.15297441,-0.9470092,1.7078809
697318914,0.3357948,-0.12804918,-0.94396526,1.7179143
697414911,0.32851154,-0.11034461,-0.94446224,1.694147
697518917,0.3198493,-0.0795748,-0.940553,1.6858158
697622919,0.31214315,-0.06152747,-0.9404526,1.684989
697718920,0.3061301,-0.04776624,-0.93931955,1.6949803
697822916,0.2960205,-0.038627688,-0.93883204,1.6962389
697926909,0.2825512,-0.032849878,-0.9381832,1.6824002
698023835,0.26830432,-0.02828618,-0.9376938,1.6566038
698127836,0.25538406,-0.017611096,-0.934862,1.6703956
698231824,0.24171913,-0.01877893,-0.9362887,1.6702614
698327720,0.22687466,-0.020709138,-0.937517,1.6276759
698431727,0.21053715,-0.02884638,-0.94102734,1.605546
698535744,0.19591424,-0.050622795,-0.94729793,1.6024767
698631720,0.18346825,-0.058933157,-0.9480521,1.5956221
698735741,0.17088766,-0.073239096,-0.9512075,1.5900571
698839719,0.16176333,-0.072760314,-0.9494377,1.5874993
698940625,0.15678829,-0.07565539,-0.95104307,1.609016
699044628,0.15595126,-0.079725556,-0.95424515,1.6298892
699140638,0.1589896,-0.08601979,-0.9583067,1.6615438
699244519,0.16565064,-0.120611094,-0.9698895,1.6648993
699348516,0.17277561,-0.17033565,-0.9830919,1.6681405
699444534,0.17571756,-0.22701307,-0.9978955,1.6443034
699548516,0.17897893,-0.28491142,-1.0115091,1.6365198
699652533,0.17984588,-0.32493111,-1.0195208,1.6443558
699748518,0.17844896,-0.35227033,-1.0271171,1.6457418
699852515,0.1748013,-0.3702848,-1.0344288,1.6468283
699958141,0.16941106,-0.37791392,-1.0402322,1.6521653
700062135,0.16273227,-0.37478495,-1.0412706,1.6714574
700158132,0.1544388,-0.35999826,-1.0373709,1.6890749
700262131,0.14224374,-0.3472802,-1.0369003,1.6861238
700366132,0.13130511,-0.3409501,-1.043318,1.6817191
700462139,0.12329886,-0.34094283,-1.0549767,1.677895
700566129,0.11551145,-0.34491172,-1.0714449,1.6621989
700671024,0.10927406,-0.34960416,-1.0919861,1.6446083
700767022,0.10467666,-0.34587613,-1.1072677,1.6312292
700871028,0.10112969,-0.33283946,-1.1206305,1.6246885
700974918,0.09954694,-0.3094615,-1.1313078,1.6243147
701070914,0.10009921,-0.27765337,-1.1375929,1.6238934
701174910,0.10241387,-0.23396108,-1.1417227,1.6243716
701278929,0.1067163,-0.18399802,-1.1427611,1.6255546
701374911,0.11219266,-0.13886073,-1.143468,1.6281003
701478911,0.11929406,-0.10008359,-1.146223,1.6314367
701583827,0.12748326,-0.07832254,-1.1526899,1.6368115
701679836,0.13558255,-0.07444193,-1.1608702,1.6401901
701783711,0.1441537,-0.0859552,-1.1729462,1.6402211
701887714,0.15318345,-0.102892086,-1.1848137,1.6406137
701991741,0.16089733,-0.11514851,-1.1949441,1.6398915
702087727,0.16632405,-0.11665088,-1.2031138,1.64052
702191720,0.17178836,-0.10598287,-1.211081,1.6423733
702295719,0.17633563,-0.08719289,-1.2217743,1.6468723
702391734,0.17926039,-0.068513565,-1.2333709,1.6478056
702493317,0.18094923,-0.049453173,-1.2436322,1.6489149
702597353,0.18133536,-0.03259107,-1.2521746,1.6506138
702701327,0.18073556,-0.022457741,-1.2610307,1.6521207
702797312,0.17955527,-0.018147694,-1.267689,1.6536322
702901317,0.17761357,-0.013872893,-1.2705837,1.6553192
703005321,0.17497177,-0.004773562,-1.271358,1.657813
703101348,0.1721975,0.010656875,-1.2713567,1.6609756
703206237,0.16945954,0.035337742,-1.2711364,1.6646297
703310916,0.16693819,0.06619792,-1.2705702,1.6693308
703406917,0.16530222,0.09782623,-1.2700809,1.6722602
703510916,0.16440254,0.13300808,-1.2696284,1.6731173
703614913,0.16428602,0.16655664,-1.2684308,1.6715944
703710915,0.16426228,0.19425885,-1.2672952,1.6686385
703814910,0.16434272,0.21915552,-1.2659104,1.6658604
703919832,0.1642976,0.23928839,-1.2635634,1.6653414
704015831,0.16396776,0.25240228,-1.2603137,1.6675737
704119842,0.1633967,0.25708747,-1.2579386,1.6674936
704223715,0.16297527,0.2501282,-1.2555901,1.6636535
704319746,0.16293772,0.235631,-1.2528979,1.6610167
704423713,0.16313553,0.21702598,-1.2473805,1.6602011
704527712,0.1634612,0.2022551,-1.2401116,1.6606531
704623719,0.1635559,0.19598483,-1.2330544,1.6615909
704727710,0.16303419,0.1980945,-1.2255241,1.6643873
704831731,0.16238774,0.20724602,-1.2188127,1.6656533
704933320,0.16198014,0.21870498,-1.2134585,1.6651896
705029316,0.16180664,0.22808123,-1.2087393,1.663303
705133320,0.16186877,0.2341801,-1.2033714,1.6596038
705237333,0.16216023,0.2339773,-1.1983769,1.6558628
705333311,0.16254748,0.22866414,-1.1937921,1.6516699
705437327,0.16290775,0.22082005,-1.1880208,1.6471896
705541346,0.16310985,0.21454298,-1.1823181,1.6429728
705638930,0.16317219,0.21270794,-1.1772757,1.6391993
705742928,0.16321571,0.21612944,-1.1721168,1.6354293
705846928,0.16286053,0.22478306,-1.1666924,1.6328639
705942913,0.1623698,0.23515825,-1.1620383,1.6311982
706046927,0.16198474,0.24504809,-1.1581334,1.6307199
706150918,0.16202807,0.25057262,-1.1533549,1.6310296
706246918,0.16258878,0.2507092,-1.1485529,1.6326475
706351838,0.16392857,0.24475124,-1.1438907,1.6356713
706455827,0.16579632,0.23309779,-1.1392382,1.6398431
706551720,0.16799901,0.22013249,-1.1340195,1.6441337
706655720,0.1707373,0.20747024,-1.1281192,1.6481848
706759721,0.17366447,0.19947843,-1.1219053,1.6512684
706863718,0.17702127,0.1981936,-1.1161314,1.6539986
706959717,0.1804464,0.20271109,-1.1109576,1.6557456
707063714,0.18476899,0.21044594,-1.1060047,1.6566625
707167711,0.18980616,0.21648805,-1.1014373,1.6564149
707264622,0.1949149,0.21759143,-1.0974553,1.6558857
707368630,0.20043631,0.21327056,-1.0938413,1.6547537
707472546,0.20573582,0.2052719,-1.0900528,1.6537088
707568515,0.21042295,0.19813085,-1.0861273,1.6530615
707672533,0.2147751,0.19375843,-1.0818326,1.6534364
707776511,0.21812072,0.19429709,-1.0777072,1.6553282
707872538,0.22016552,0.1988112,-1.0742191,1.656965
707976624,0.22092819,0.20660275,-1.0708271,1.6588877
708080509,0.22025459,0.21555491,-1.067403,1.6603786
708181431,0.21872535,0.22447729,-1.0639126,1.6614032
708277425,0.21647616,0.23229985,-1.0608819,1.6626518
708381427,0.21369947,0.23987234,-1.0580579,1.6621755
708485314,0.21087301,0.24654233,-1.0555773,1.6616335
708581321,0.20830522,0.2520554,-1.0538576,1.6609833
708685318,0.20578268,0.25761443,-1.0519952,1.6606232
708789315,0.2035125,0.26270884,-1.0496039,1.6611829
708893347,0.2014251,0.26708004,-1.0474054,1.661325
708989317,0.19963981,0.2707128,-1.0459509,1.6610239
709093368,0.1979014,0.27412468,-1.0423065,1.6613226
709190919,0.19643874,0.27672717,-1.0346217,1.6617463
709294916,0.19527572,0.27881876,-1.01741,1.6629156
709398911,0.19485115,0.27999857,-0.9982757,1.6641748
709494911,0.19491835,0.28028578,-0.980199,1.6650985
709598927,0.19591898,0.28017166,-0.9495149,1.6668745
709702913,0.19775951,0.27941066,-0.90761125,1.6692688
709806916,0.2005919,0.27824533,-0.8656254,1.6727195
709903829,0.20387138,0.27700984,-0.82717854,1.6753899
710007833,0.20795384,0.27543855,-0.78581685,1.6774594
710111734,0.21188724,0.2733437,-0.7460424,1.6773716
710215715,0.21511701,0.2703766,-0.7081368,1.6745712
710311718,0.21709436,0.26649857,-0.67424786,1.6684048
710415708,0.21771991,0.26109233,-0.6385249,1.6595834
710519743,0.21701413,0.25496128,-0.60419226,1.6496304
710615736,0.21551405,0.24899499,-0.57284975,1.6412166
710719715,0.21376403,0.24260443,-0.53908765,1.6329463
710824618,0.2117131,0.23676717,-0.505427,1.6266845
710920627,0.20968875,0.23230064,-0.47466612,1.6219859
711024619,0.20805691,0.22843508,-0.44137457,1.617947
711128520,0.20732772,0.22538537,-0.40920267,1.6138005
711224512,0.20715967,0.22317278,-0.38216162,1.6098169
711328508,0.20755152,0.22081444,-0.35587326,1.6053511
711432518,0.20863312,0.21814378,-0.33550856,1.6017301
711528515,0.21021765,0.21552008,-0.31833372,1.5993941
711632518,0.21205772,0.2127178,-0.2976859,1.5996115
711736516,0.21442978,0.20918272,-0.2714233,1.6001654
711838164,0.21729764,0.20534983,-0.23726833,1.6021469
711942121,0.22051792,0.20163299,-0.20226434,1.6045748
712046141,0.22377071,0.19825353,-0.17522632,1.6065336
712142124,0.22667104,0.19566117,-0.16476017,1.6080835
712246126,0.22901966,0.19349954,-0.15930314,1.6102496
712350118,0.23030457,0.19073425,-0.15372255,1.6121577
712446130,0.23075525,0.18771268,-0.14663187,1.6147817
712551052,0.23106031,0.18460293,-0.13507228,1.6201453
712655036,0.23102918,0.1816077,-0.11751909,1.6257493
712750916,0.23018505,0.17949341,-0.10534108,1.6301066
712854929,0.22917625,0.17771654,-0.098228335,1.6338208
712958938,0.22852807,0.17680152,-0.090563,1.6387553
713054928,0.22823684,0.17650725,-0.0812987,1.6413361
713158912,0.22721659,0.17662716,-0.06361281,1.6435695
713262913,0.22542608,0.1775694,-0.048192482,1.6450399
713358927,0.22347343,0.17903244,-0.042917345,1.6458668
713463823,0.22061498,0.18045452,-0.037390687,1.6472648
713567820,0.21733232,0.1814928,-0.03128174,1.6485387
713663719,0.21428211,0.18208718,-0.026688375,1.6496084
713767712,0.21078192,0.18266085,-0.0220481,1.6513153
713871729,0.20788375,0.18358688,-0.017197587,1.6511003
713975718,0.20655468,0.18501076,-0.012841502,1.6484586
714071733,0.20645285,0.18647854,-0.009460334,1.6448586
714175731,0.20733546,0.18806253,-0.00415521,1.642571
714279719,0.2095804,0.19021066,-0.000581694,1.6390958
714381316,0.21254839,0.19143312,-0.0004157,1.6334573
714477331,0.21418025,0.1920894,-0.000405152,1.6251119
714581357,0.2152624,0.1919826,-0.000698487,1.6203364
714685314,0.2163285,0.19148423,-0.000831658,1.6170003
714781321,0.21752459,0.19077848,-0.000782464,1.6157364
714885332,0.21894541,0.19001445,-0.000738747,1.6158484
714989332,0.22001742,0.18956944,-0.000778164,1.616591
715085345,0.22085871,0.18941945,-0.000845108,1.6175516
715190926,0.2216172,0.1898367,-0.000667917,1.6181806
715294943,0.2220976,0.19028206,-0.000451716,1.6188343
715398920,0.22246037,0.19046372,-0.000196304,1.6194334
715494920,0.22264212,0.19036554,0.000293439,1.6188449
715598916,0.22271714,0.19012819,0.000848715,1.6194141
715702913,0.22273962,0.18994164,0.001179141,1.619328
715798918,0.22262925,0.1898856,0.001242498,1.6191584
715903837,0.22226818,0.19005227,0.000895032,1.6191695
716007828,0.22165456,0.1902974,0.00030641,1.6191149
716103719,0.22124471,0.19041428,1.60E-05,1.6191088
716207713,0.22112273,0.19058295,-7.75E-05,1.6192875
716311713,0.22099638,0.1910351,-0.000448592,1.6193448
716407710,0.22053134,0.19167593,-0.000983852,1.6191766
716511716,0.21958518,0.19252059,-0.001660709,1.6190684
716615709,0.21847348,0.19333658,-0.002614722,1.6191207
716719731,0.21719441,0.19393714,-0.003386018,1.6187046
716820628,0.21591733,0.19417697,-0.004113345,1.6184732
716916627,0.21479525,0.19420274,-0.004840924,1.6181432
717020530,0.21352443,0.19443826,-0.005970466,1.6189007
717124515,0.21302682,0.19422431,-0.007042103,1.6187848
717220543,0.2127896,0.19397506,-0.007868011,1.6188936
717324516,0.21278587,0.19369073,-0.008580542,1.6188935
717428510,0.21310738,0.19343445,-0.009043786,1.6188725
717524544,0.21360616,0.19320895,-0.009342786,1.6191338
717628506,0.21439776,0.19300114,-0.009505298,1.6191676
717733425,0.21522817,0.19286917,-0.009716962,1.6192173
717829446,0.2161848,0.19283798,-0.009698157,1.6191423
717933421,0.21716839,0.19281209,-0.009519113,1.6190982
718037311,0.21812518,0.19278349,-0.009108245,1.619142
718133317,0.21895085,0.1927955,-0.008589388,1.619136
718237318,0.21977058,0.19284138,-0.007882773,1.6193192
718341321,0.22053629,0.1928638,-0.007166516,1.6192696
718437318,0.22127049,0.1928304,-0.006533034,1.619274
718541312,0.22196864,0.19279368,-0.005803386,1.619382
718645331,0.22254716,0.1927719,-0.005115865,1.6193818
718742914,0.22295304,0.1927765,-0.004538219,1.6195016
718846927,0.2232795,0.19273113,-0.004017743,1.619415
718950912,0.22351898,0.19274874,-0.003603394,1.6194679
719046913,0.22370878,0.19269717,-0.003403064,1.6193802
719150912,0.22388157,0.19257008,-0.003293688,1.6197411
719254919,0.2239958,0.1923659,-0.0033462,1.61939
719350918,0.22414446,0.1922596,-0.00351093,1.6194476
719455843,0.22417784,0.19217332,-0.003961527,1.6194094
719559833,0.22416726,0.19219679,-0.004499841,1.6195694
719655711,0.22404696,0.19232427,-0.005018428,1.6195089
719759712,0.2238793,0.19257386,-0.005680251,1.6195123
719863711,0.22362092,0.19283204,-0.006361865,1.6195574
719967729,0.22334313,0.19304907,-0.007085929,1.6196713
720063709,0.22316316,0.19310758,-0.007609361,1.6196375
720167718,0.22304536,0.19306414,-0.007893204,1.6195638
720271736,0.2229373,0.19293575,-0.007888738,1.6194842
720372619,0.22272916,0.19266129,-0.007569032,1.6194354
720468618,0.22256717,0.19245629,-0.007112549,1.6195691
720572630,0.22233629,0.19221789,-0.006472951,1.6195313
720676513,0.222064,0.19203007,-0.00579756,1.619648
720772511,0.22195303,0.19194476,-0.005096113,1.6197127
720876511,0.22190148,0.1919366,-0.00436794,1.6195107
720980517,0.22186609,0.19205914,-0.003707968,1.6194066
721076511,0.22180094,0.19230688,-0.00314183,1.6197027
721180515,0.2218769,0.19254729,-0.002621946,1.6198314
721284521,0.22199365,0.19270763,-0.002199313,1.619849
721381445,0.22211793,0.1928262,-0.001915896,1.6197946
721485425,0.22222203,0.19292153,-0.001761038,1.6197293
721589414,0.22227703,0.192959,-0.001716366,1.6197308
721685313,0.22227322,0.19294761,-0.001766068,1.6197585
721789310,0.22224209,0.19291429,-0.001942505,1.6197928
721893329,0.22218348,0.19290674,-0.002161577,1.6198052
721997328,0.22213514,0.19293939,-0.002380641,1.6197779
722095029,0.22211125,0.19299696,-0.00259091,1.6198071
722199045,0.22202078,0.1930607,-0.002822965,1.6198213
722294913,0.22189836,0.19304067,-0.002982159,1.6198276
722398952,0.22174646,0.19294281,-0.003114186,1.6198512
722502919,0.2215514,0.19282182,-0.003197382,1.6198927
722599716,0.22135475,0.19264853,-0.003258388,1.6198783
722703743,0.22113709,0.19244128,-0.00330558,1.6198606
722804557,0.22090968,0.19223823,-0.00333755,1.619833
722908546,0.22075447,0.1920661,-0.003389326,1.619813
723012511,0.22070144,0.19192497,-0.003451661,1.6198342
723108529,0.22066192,0.19181897,-0.003517107,1.6198144
723212545,0.22060727,0.19172262,-0.003606414,1.6198534
723316509,0.22054479,0.19163756,-0.00369925,1.6198769
723412514,0.22044244,0.19164318,-0.003755038,1.6198939
